{"type":"FeatureCollection","features":[{"type":"Feature","id":"philadelphia_police_stations.1","geometry":{"type":"Point","coordinates":[-75.17304,39.96211]},"geometry_name":"the_geom","properties":{"osm_id":313440744,"timestamp":"","name":"9th Police District","type":"police"}},{"type":"Feature","id":"philadelphia_police_stations.2","geometry":{"type":"Point","coordinates":[-75.12328,39.82743]},"geometry_name":"the_geom","properties":{"osm_id":314311544,"timestamp":"","name":"","type":"police"}},{"type":"Feature","id":"philadelphia_police_stations.3","geometry":{"type":"Point","coordinates":[-75.11623,39.94363]},"geometry_name":"the_geom","properties":{"osm_id":329192932,"timestamp":"","name":"Camden Police","type":"police"}},{"type":"Feature","id":"philadelphia_police_stations.4","geometry":{"type":"Point","coordinates":[-74.91964,39.95593]},"geometry_name":"the_geom","properties":{"osm_id":332500794,"timestamp":"","name":"New Jersey State Police â Moorestown","type":"police"}},{"type":"Feature","id":"philadelphia_police_stations.5","geometry":{"type":"Point","coordinates":[-75.5312,39.8356]},"geometry_name":"the_geom","properties":{"osm_id":366753289,"timestamp":"","name":"Delaware State Police Satellite 1A Police Depart","type":"police"}},{"type":"Feature","id":"philadelphia_police_stations.6","geometry":{"type":"Point","coordinates":[-75.191,39.8453]},"geometry_name":"the_geom","properties":{"osm_id":367693748,"timestamp":"","name":"West Deptford Township Police Department","type":"police"}},{"type":"Feature","id":"philadelphia_police_stations.7","geometry":{"type":"Point","coordinates":[-74.8655,40.075]},"geometry_name":"the_geom","properties":{"osm_id":367693790,"timestamp":"","name":"Burlington Bristol Bridge Police Station","type":"police"}},{"type":"Feature","id":"philadelphia_police_stations.8","geometry":{"type":"Point","coordinates":[-75.2408,39.8311]},"geometry_name":"the_geom","properties":{"osm_id":367693822,"timestamp":"","name":"Paulsboro Police Department","type":"police"}},{"type":"Feature","id":"philadelphia_police_stations.9","geometry":{"type":"Point","coordinates":[-75.2917,39.8248]},"geometry_name":"the_geom","properties":{"osm_id":367693841,"timestamp":"","name":"Greenwich Township Police Department","type":"police"}},{"type":"Feature","id":"philadelphia_police_stations.10","geometry":{"type":"Point","coordinates":[-74.8684,40.0762]},"geometry_name":"the_geom","properties":{"osm_id":367693864,"timestamp":"","name":"Burlington Police Station","type":"police"}},{"type":"Feature","id":"philadelphia_police_stations.11","geometry":{"type":"Point","coordinates":[-75.2883,40.0066]},"geometry_name":"the_geom","properties":{"osm_id":367965002,"timestamp":"","name":"Lower Merion-Main Police Station","type":"police"}},{"type":"Feature","id":"philadelphia_police_stations.12","geometry":{"type":"Point","coordinates":[-75.0627,40.1231]},"geometry_name":"the_geom","properties":{"osm_id":367965004,"timestamp":"","name":"Lower Moreland Township Police Station","type":"police"}},{"type":"Feature","id":"philadelphia_police_stations.13","geometry":{"type":"Point","coordinates":[-75.4084,40.1637]},"geometry_name":"the_geom","properties":{"osm_id":367965007,"timestamp":"","name":"Lower Providence Township Police Station","type":"police"}},{"type":"Feature","id":"philadelphia_police_stations.14","geometry":{"type":"Point","coordinates":[-75.3872,40.2776]},"geometry_name":"the_geom","properties":{"osm_id":367965009,"timestamp":"","name":"Lower Salford Township Police Station","type":"police"}},{"type":"Feature","id":"philadelphia_police_stations.15","geometry":{"type":"Point","coordinates":[-75.51187,40.03351]},"geometry_name":"the_geom","properties":{"osm_id":367965012,"timestamp":"","name":"Malvern Police Station","type":"police"}},{"type":"Feature","id":"philadelphia_police_stations.16","geometry":{"type":"Point","coordinates":[-75.4226,39.8243]},"geometry_name":"the_geom","properties":{"osm_id":367965015,"timestamp":"","name":"Marcus Hook Police Department","type":"police"}},{"type":"Feature","id":"philadelphia_police_stations.17","geometry":{"type":"Point","coordinates":[-75.36336,39.97546]},"geometry_name":"the_geom","properties":{"osm_id":367965019,"timestamp":"","name":"Marple Township Police Department","type":"police"}},{"type":"Feature","id":"philadelphia_police_stations.18","geometry":{"type":"Point","coordinates":[-75.3449,39.8617]},"geometry_name":"the_geom","properties":{"osm_id":367965023,"timestamp":"","name":"Eddystone Police Department","type":"police"}},{"type":"Feature","id":"philadelphia_police_stations.19","geometry":{"type":"Point","coordinates":[-75.2795,39.9]},"geometry_name":"the_geom","properties":{"osm_id":367965025,"timestamp":"","name":"Folcroft Police Department","type":"police"}},{"type":"Feature","id":"philadelphia_police_stations.20","geometry":{"type":"Point","coordinates":[-75.2885,39.8997]},"geometry_name":"the_geom","properties":{"osm_id":367965029,"timestamp":"","name":"Glenolden Police Department","type":"police"}},{"type":"Feature","id":"philadelphia_police_stations.21","geometry":{"type":"Point","coordinates":[-75.5431,40.2404]},"geometry_name":"the_geom","properties":{"osm_id":367965031,"timestamp":"","name":"Limerick Township Police Station","type":"police"}},{"type":"Feature","id":"philadelphia_police_stations.22","geometry":{"type":"Point","coordinates":[-75.4222,39.8239]},"geometry_name":"the_geom","properties":{"osm_id":367965034,"timestamp":"","name":"Lower Chichester Township Police Department","type":"police"}},{"type":"Feature","id":"philadelphia_police_stations.23","geometry":{"type":"Point","coordinates":[-75.4608,40.2725]},"geometry_name":"the_geom","properties":{"osm_id":367965036,"timestamp":"","name":"Lower Frederick Township Police Station","type":"police"}},{"type":"Feature","id":"philadelphia_police_stations.24","geometry":{"type":"Point","coordinates":[-75.2256,40.1882]},"geometry_name":"the_geom","properties":{"osm_id":367965038,"timestamp":"","name":"Lower Gwynedd Township Police Station","type":"police"}},{"type":"Feature","id":"philadelphia_police_stations.25","geometry":{"type":"Point","coordinates":[-75.3185,40.1446]},"geometry_name":"the_geom","properties":{"osm_id":367965051,"timestamp":"","name":"East Norriton Township Police Station","type":"police"}},{"type":"Feature","id":"philadelphia_police_stations.26","geometry":{"type":"Point","coordinates":[-75.2627,39.9451]},"geometry_name":"the_geom","properties":{"osm_id":367965053,"timestamp":"","name":"East Lansdowne Police Station","type":"police"}},{"type":"Feature","id":"philadelphia_police_stations.27","geometry":{"type":"Point","coordinates":[-75.5878,40.1619]},"geometry_name":"the_geom","properties":{"osm_id":367965056,"timestamp":"","name":"East Vincent Township Police Station","type":"police"}},{"type":"Feature","id":"philadelphia_police_stations.28","geometry":{"type":"Point","coordinates":[-75.55369,40.1363]},"geometry_name":"the_geom","properties":{"osm_id":367965059,"timestamp":"","name":"East Pikeland Township Police Station","type":"police"}},{"type":"Feature","id":"philadelphia_police_stations.29","geometry":{"type":"Point","coordinates":[-75.4272,40.0227]},"geometry_name":"the_geom","properties":{"osm_id":367965061,"timestamp":"","name":"Easttown Township Police Department","type":"police"}},{"type":"Feature","id":"philadelphia_police_stations.30","geometry":{"type":"Point","coordinates":[-75.55794,40.04889]},"geometry_name":"the_geom","properties":{"osm_id":367965063,"timestamp":"","name":"East Whiteland Township Police Station","type":"police"}},{"type":"Feature","id":"philadelphia_police_stations.31","geometry":{"type":"Point","coordinates":[-75.30416,39.97587]},"geometry_name":"the_geom","properties":{"osm_id":367965067,"timestamp":"","name":"Haverford Township Police Station","type":"police"}},{"type":"Feature","id":"philadelphia_police_stations.32","geometry":{"type":"Point","coordinates":[-75.2851,40.2845]},"geometry_name":"the_geom","properties":{"osm_id":367965069,"timestamp":"","name":"Hatfield Township Police Station","type":"police"}},{"type":"Feature","id":"philadelphia_police_stations.33","geometry":{"type":"Point","coordinates":[-75.1786,40.2069]},"geometry_name":"the_geom","properties":{"osm_id":367965071,"timestamp":"","name":"Horsham Township Police Station","type":"police"}},{"type":"Feature","id":"philadelphia_police_stations.34","geometry":{"type":"Point","coordinates":[-75.2601,39.9192]},"geometry_name":"the_geom","properties":{"osm_id":367965075,"timestamp":"","name":"Darby Police Department","type":"police"}},{"type":"Feature","id":"philadelphia_police_stations.35","geometry":{"type":"Point","coordinates":[-75.6386,39.9707]},"geometry_name":"the_geom","properties":{"osm_id":367965080,"timestamp":"","name":"East Bradford Township Police Station","type":"police"}},{"type":"Feature","id":"philadelphia_police_stations.36","geometry":{"type":"Point","coordinates":[-75.1883,39.9237]},"geometry_name":"the_geom","properties":{"osm_id":367965084,"timestamp":"","name":"Philadelphia District 1 Police Department","type":"police"}},{"type":"Feature","id":"philadelphia_police_stations.37","geometry":{"type":"Point","coordinates":[-75.2345,39.9254]},"geometry_name":"the_geom","properties":{"osm_id":367965087,"timestamp":"","name":"Philadelphia District 12 Police Department","type":"police"}},{"type":"Feature","id":"philadelphia_police_stations.38","geometry":{"type":"Point","coordinates":[-75.2332,39.9539]},"geometry_name":"the_geom","properties":{"osm_id":367965094,"timestamp":"","name":"Philadelphia District 18 Police Station","type":"police"}},{"type":"Feature","id":"philadelphia_police_stations.39","geometry":{"type":"Point","coordinates":[-75.24067,39.97098]},"geometry_name":"the_geom","properties":{"osm_id":367965096,"timestamp":"","name":"Philadelphia District 19 Police Station","type":"police"}},{"type":"Feature","id":"philadelphia_police_stations.40","geometry":{"type":"Point","coordinates":[-75.1779,40.0386]},"geometry_name":"the_geom","properties":{"osm_id":367965099,"timestamp":"","name":"Philadelphia District 14 Police Station","type":"police"}},{"type":"Feature","id":"philadelphia_police_stations.41","geometry":{"type":"Point","coordinates":[-75.1997,39.9617]},"geometry_name":"the_geom","properties":{"osm_id":367965101,"timestamp":"","name":"Philadelphia District 16 Police Department","type":"police"}},{"type":"Feature","id":"philadelphia_police_stations.42","geometry":{"type":"Point","coordinates":[-75.27239,39.90622]},"geometry_name":"the_geom","properties":{"osm_id":367965106,"timestamp":"","name":"Sharon Hill Police Department","type":"police"}},{"type":"Feature","id":"philadelphia_police_stations.43","geometry":{"type":"Point","coordinates":[-75.5123,40.1086]},"geometry_name":"the_geom","properties":{"osm_id":367965108,"timestamp":"","name":"Schuylkill Police Station","type":"police"}},{"type":"Feature","id":"philadelphia_police_stations.44","geometry":{"type":"Point","coordinates":[-75.4633,40.252]},"geometry_name":"the_geom","properties":{"osm_id":367965111,"timestamp":"","name":"Schwenksville Police Station","type":"police"}},{"type":"Feature","id":"philadelphia_police_stations.45","geometry":{"type":"Point","coordinates":[-75.5651,40.1922]},"geometry_name":"the_geom","properties":{"osm_id":367965113,"timestamp":"","name":"Pennhurst Police Station","type":"police"}},{"type":"Feature","id":"philadelphia_police_stations.46","geometry":{"type":"Point","coordinates":[-75.44393,39.9203]},"geometry_name":"the_geom","properties":{"osm_id":367965115,"timestamp":"","name":"Pennsylvania State Police Crime Laboratory","type":"police"}},{"type":"Feature","id":"philadelphia_police_stations.47","geometry":{"type":"Point","coordinates":[-75.0727,40.208]},"geometry_name":"the_geom","properties":{"osm_id":367965124,"timestamp":"","name":"Ivyland Borough Police Station","type":"police"}},{"type":"Feature","id":"philadelphia_police_stations.48","geometry":{"type":"Point","coordinates":[-75.36847,39.90029]},"geometry_name":"the_geom","properties":{"osm_id":367965126,"timestamp":"","name":"Nether Providence Township Police Department","type":"police"}},{"type":"Feature","id":"philadelphia_police_stations.49","geometry":{"type":"Point","coordinates":[-75.26453,40.00476]},"geometry_name":"the_geom","properties":{"osm_id":367965128,"timestamp":"","name":"Narbeth Police Station","type":"police"}},{"type":"Feature","id":"philadelphia_police_stations.50","geometry":{"type":"Point","coordinates":[-75.5977,40.2451]},"geometry_name":"the_geom","properties":{"osm_id":367965131,"timestamp":"","name":"Sanatoga Police Station","type":"police"}}],"totalFeatures":143,"numberMatched":143,"numberReturned":50,"timeStamp":"2020-09-19T11:10:47.974Z","crs":{"type":"name","properties":{"name":"urn:ogc:def:crs:EPSG::4326"}}}
